[
  {"id":"culpeper_cxone",   "name":"Culpeper, VA",   "city":"Culpeper",       "state":"Virginia",   "country":"United States","region":"North America","platform":"CXone Software",  "type":"cxone","lat":38.47,  "lng":-77.99},
  {"id":"culpeper_cognigy", "name":"Culpeper, VA",   "city":"Culpeper",       "state":"Virginia",   "country":"United States","region":"North America","platform":"Cognigy AI",      "type":"cxone","lat":38.47,  "lng":-77.99},
  {"id":"oregon_cxone",     "name":"Oregon",         "city":"Portland",       "state":"Oregon",     "country":"United States","region":"North America","platform":"CXone Software",  "type":"cxone","lat":44.00,  "lng":-120.50},
  {"id":"oregon_cognigy",   "name":"Oregon",         "city":"Portland",       "state":"Oregon",     "country":"United States","region":"North America","platform":"Cognigy AI",      "type":"cxone","lat":44.00,  "lng":-120.50},
  {"id":"la_voicepop",      "name":"Los Angeles",    "city":"Los Angeles",    "state":"California", "country":"United States","region":"North America","platform":"Voice POP",       "type":"voice","lat":34.05,  "lng":-118.24},
  {"id":"la_pstn",          "name":"Los Angeles",    "city":"Los Angeles",    "state":"California", "country":"United States","region":"North America","platform":"PSTN Carrier",    "type":"voice","lat":34.05,  "lng":-118.24},
  {"id":"miami_voicepop",   "name":"Miami",          "city":"Miami",          "state":"Florida",    "country":"United States","region":"North America","platform":"Voice POP",       "type":"voice","lat":25.77,  "lng":-80.19},
  {"id":"miami_pstn",       "name":"Miami",          "city":"Miami",          "state":"Florida",    "country":"United States","region":"North America","platform":"PSTN Carrier",    "type":"voice","lat":25.77,  "lng":-80.19},
  {"id":"dallas_sov",       "name":"Dallas",         "city":"Dallas",         "state":"Texas",      "country":"United States","region":"North America","platform":"FedRamp Region",    "type":"sov",  "lat":32.78,  "lng":-96.80},
  {"id":"dallas_pstn",      "name":"Dallas",         "city":"Dallas",         "state":"Texas",      "country":"United States","region":"North America","platform":"PSTN Carrier",    "type":"sov",  "lat":32.78,  "lng":-96.80},
  {"id":"toronto_voicepop", "name":"Toronto",        "city":"Toronto",        "state":"",           "country":"Canada",        "region":"North America","platform":"Voice POP",       "type":"voice","lat":43.65,  "lng":-79.38},
  {"id":"toronto_pstn",     "name":"Toronto",        "city":"Toronto",        "state":"",           "country":"Canada",        "region":"North America","platform":"PSTN Carrier",    "type":"voice","lat":43.65,  "lng":-79.38},
  {"id":"montreal_voicepop","name":"Montreal",       "city":"Montreal",       "state":"",           "country":"Canada",        "region":"North America","platform":"Voice POP",       "type":"voice","lat":45.50,  "lng":-73.57},
  {"id":"london_cxone",     "name":"London",         "city":"London",         "state":"",           "country":"United Kingdom","region":"EMEA",         "platform":"CXone Software",  "type":"cxone","lat":51.51,  "lng":-0.13},
  {"id":"london_cognigy",   "name":"London",         "city":"London",         "state":"",           "country":"United Kingdom","region":"EMEA",         "platform":"Cognigy AI",      "type":"cxone","lat":51.51,  "lng":-0.13},
  {"id":"london_pstn",      "name":"London",         "city":"London",         "state":"",           "country":"United Kingdom","region":"EMEA",         "platform":"PSTN Carrier",    "type":"cxone","lat":51.51,  "lng":-0.13},
  {"id":"manchester_cxone", "name":"Manchester",     "city":"Manchester",     "state":"",           "country":"United Kingdom","region":"EMEA",         "platform":"CXone Software",  "type":"cxone","lat":53.48,  "lng":-2.24},
  {"id":"manchester_cognigy","name":"Manchester",    "city":"Manchester",     "state":"",           "country":"United Kingdom","region":"EMEA",         "platform":"Cognigy AI",      "type":"cxone","lat":53.48,  "lng":-2.24},
  {"id":"manchester_pstn",  "name":"Manchester",     "city":"Manchester",     "state":"",           "country":"United Kingdom","region":"EMEA",         "platform":"PSTN Carrier",    "type":"cxone","lat":53.48,  "lng":-2.24},
  {"id":"frankfurt_cxone",  "name":"Frankfurt",      "city":"Frankfurt",      "state":"",           "country":"Germany",       "region":"EMEA",         "platform":"CXone Software",  "type":"cxone","lat":50.11,  "lng":8.68},
  {"id":"frankfurt_cognigy","name":"Frankfurt",      "city":"Frankfurt",      "state":"",           "country":"Germany",       "region":"EMEA",         "platform":"Cognigy AI",      "type":"cxone","lat":50.11,  "lng":8.68},
  {"id":"munich_voicepop",  "name":"Munich",         "city":"Munich",         "state":"",           "country":"Germany",       "region":"EMEA",         "platform":"Voice POP",       "type":"voice","lat":48.14,  "lng":11.58},
  {"id":"dubai_cxone",      "name":"Dubai",          "city":"Dubai",          "state":"",           "country":"UAE",           "region":"MEA",          "platform":"CXone Software",  "type":"cxone","lat":25.20,  "lng":55.27},
  {"id":"dubai_cognigy",    "name":"Dubai",          "city":"Dubai",          "state":"",           "country":"UAE",           "region":"MEA",          "platform":"Cognigy AI",      "type":"cxone","lat":25.20,  "lng":55.27},
  {"id":"dubai_pstn",       "name":"Dubai",          "city":"Dubai",          "state":"",           "country":"UAE",           "region":"MEA",          "platform":"PSTN Carrier",    "type":"cxone","lat":25.20,  "lng":55.27},
  {"id":"abudhabi_cxone",   "name":"Abu Dhabi",      "city":"Abu Dhabi",      "state":"",           "country":"UAE",           "region":"MEA",          "platform":"CXone Software",  "type":"cxone","lat":24.47,  "lng":54.37},
  {"id":"abudhabi_cognigy", "name":"Abu Dhabi",      "city":"Abu Dhabi",      "state":"",           "country":"UAE",           "region":"MEA",          "platform":"Cognigy AI",      "type":"cxone","lat":24.47,  "lng":54.37},
  {"id":"abudhabi_pstn",    "name":"Abu Dhabi",      "city":"Abu Dhabi",      "state":"",           "country":"UAE",           "region":"MEA",          "platform":"PSTN Carrier",    "type":"cxone","lat":24.47,  "lng":54.37},
  {"id":"mumbai_voicepop",  "name":"Mumbai",         "city":"Mumbai",         "state":"",           "country":"India",         "region":"APAC",         "platform":"Voice POP",       "type":"voice","lat":19.08,  "lng":72.88},
  {"id":"mumbai_pstn",      "name":"Mumbai",         "city":"Mumbai",         "state":"",           "country":"India",         "region":"APAC",         "platform":"PSTN Carrier",    "type":"voice","lat":19.08,  "lng":72.88},
  {"id":"hyderabad_voicepop","name":"Hyderabad",     "city":"Hyderabad",      "state":"",           "country":"India",         "region":"APAC",         "platform":"Voice POP",       "type":"voice","lat":17.38,  "lng":78.49},
  {"id":"hyderabad_pstn",   "name":"Hyderabad",      "city":"Hyderabad",      "state":"",           "country":"India",         "region":"APAC",         "platform":"PSTN Carrier",    "type":"voice","lat":17.38,  "lng":78.49},
  {"id":"singapore_cxone",  "name":"Singapore",      "city":"Singapore",      "state":"",           "country":"Singapore",     "region":"APAC",         "platform":"CXone Software",  "type":"cxone","lat":1.35,   "lng":103.82},
  {"id":"singapore_cognigy","name":"Singapore",      "city":"Singapore",      "state":"",           "country":"Singapore",     "region":"APAC",         "platform":"Cognigy AI",      "type":"cxone","lat":1.35,   "lng":103.82},
  {"id":"singapore_pstn",   "name":"Singapore",      "city":"Singapore",      "state":"",           "country":"Singapore",     "region":"APAC",         "platform":"PSTN Carrier",    "type":"cxone","lat":1.35,   "lng":103.82},
  {"id":"tokyo_cxone",      "name":"Tokyo",          "city":"Tokyo",          "state":"",           "country":"Japan",         "region":"APAC",         "platform":"CXone Software",  "type":"cxone","lat":35.69,  "lng":139.69},
  {"id":"tokyo_cognigy",    "name":"Tokyo",          "city":"Tokyo",          "state":"",           "country":"Japan",         "region":"APAC",         "platform":"Cognigy AI",      "type":"cxone","lat":35.69,  "lng":139.69},
  {"id":"tokyo_pstn",       "name":"Tokyo",          "city":"Tokyo",          "state":"",           "country":"Japan",         "region":"APAC",         "platform":"PSTN Carrier",    "type":"cxone","lat":35.69,  "lng":139.69},
  {"id":"osaka_cxone",      "name":"Osaka",          "city":"Osaka",          "state":"",           "country":"Japan",         "region":"APAC",         "platform":"CXone Software",  "type":"cxone","lat":34.69,  "lng":135.50},
  {"id":"osaka_cognigy",    "name":"Osaka",          "city":"Osaka",          "state":"",           "country":"Japan",         "region":"APAC",         "platform":"Cognigy AI",      "type":"cxone","lat":34.69,  "lng":135.50},
  {"id":"osaka_pstn",       "name":"Osaka",          "city":"Osaka",          "state":"",           "country":"Japan",         "region":"APAC",         "platform":"PSTN Carrier",    "type":"cxone","lat":34.69,  "lng":135.50},
  {"id":"seoul_voicepop",   "name":"Seoul",          "city":"Seoul",          "state":"",           "country":"South Korea",   "region":"APAC",         "platform":"Voice POP",       "type":"voice","lat":37.57,  "lng":126.98},
  {"id":"seoul_pstn",       "name":"Seoul",          "city":"Seoul",          "state":"",           "country":"South Korea",   "region":"APAC",         "platform":"PSTN Carrier",    "type":"voice","lat":37.57,  "lng":126.98},
  {"id":"sydney_cxone",     "name":"Sydney",         "city":"Sydney",         "state":"",           "country":"Australia",     "region":"APAC",         "platform":"CXone Software",  "type":"cxone","lat":-33.87, "lng":151.21},
  {"id":"sydney_cognigy",   "name":"Sydney",         "city":"Sydney",         "state":"",           "country":"Australia",     "region":"APAC",         "platform":"Cognigy AI",      "type":"cxone","lat":-33.87, "lng":151.21},
  {"id":"sydney_pstn",      "name":"Sydney",         "city":"Sydney",         "state":"",           "country":"Australia",     "region":"APAC",         "platform":"PSTN Carrier",    "type":"cxone","lat":-33.87, "lng":151.21},
  {"id":"melbourne_voicepop","name":"Melbourne",     "city":"Melbourne",      "state":"",           "country":"Australia",     "region":"APAC",         "platform":"Voice POP",       "type":"voice","lat":-37.81, "lng":144.96},
  {"id":"saopaulo_sov",     "name":"Sao Paulo",      "city":"Sao Paulo",      "state":"",           "country":"Brazil",        "region":"LATAM",        "platform":"SOV Region",      "type":"sov",  "lat":-23.55, "lng":-46.63},
  {"id":"saopaulo_voicepop","name":"Sao Paulo",      "city":"Sao Paulo",      "state":"",           "country":"Brazil",        "region":"LATAM",        "platform":"Voice POP",       "type":"sov",  "lat":-23.55, "lng":-46.63},
  {"id":"saopaulo_pstn",    "name":"Sao Paulo",      "city":"Sao Paulo",      "state":"",           "country":"Brazil",        "region":"LATAM",        "platform":"PSTN Carrier",    "type":"sov",  "lat":-23.55, "lng":-46.63},
  {"id":"rio_sov",          "name":"Rio de Janeiro", "city":"Rio de Janeiro", "state":"",           "country":"Brazil",        "region":"LATAM",        "platform":"SOV Region",      "type":"sov",  "lat":-22.91, "lng":-43.17},
  {"id":"rio_voicepop",     "name":"Rio de Janeiro", "city":"Rio de Janeiro", "state":"",           "country":"Brazil",        "region":"LATAM",        "platform":"Voice POP",       "type":"sov",  "lat":-22.91, "lng":-43.17},
  {"id":"capetown_sov",     "name":"Cape Town",      "city":"Cape Town",      "state":"",           "country":"South Africa",  "region":"MEA",          "platform":"SOV Region",      "type":"sov",  "lat":-33.93, "lng":18.42},
  {"id":"capetown_voicepop","name":"Cape Town",      "city":"Cape Town",      "state":"",           "country":"South Africa",  "region":"MEA",          "platform":"Voice POP",       "type":"sov",  "lat":-33.93, "lng":18.42},
  {"id":"capetown_pstn",    "name":"Cape Town",      "city":"Cape Town",      "state":"",           "country":"South Africa",  "region":"MEA",          "platform":"PSTN Carrier",    "type":"sov",  "lat":-33.93, "lng":18.42},
  {"id":"johannesburg_sov", "name":"Johannesburg",   "city":"Johannesburg",   "state":"",           "country":"South Africa",  "region":"MEA",          "platform":"SOV Region",      "type":"sov",  "lat":-26.20, "lng":28.04},
  {"id":"johannesburg_voicepop","name":"Johannesburg","city":"Johannesburg",  "state":"",           "country":"South Africa",  "region":"MEA",          "platform":"Voice POP",       "type":"sov",  "lat":-26.20, "lng":28.04},
  {"id":"johannesburg_pstn","name":"Johannesburg",   "city":"Johannesburg",   "state":"",           "country":"South Africa",  "region":"MEA",          "platform":"PSTN Carrier",    "type":"sov",  "lat":-26.20, "lng":28.04}
]